[{"day":"Saturday","start":16.15,"end":17.3,"name":"125  Two For One -","location":"Harlem Children's Zone Admin. Offices","address":"35 E 125 ST New York NY 10035","lat":"40.805958","long":"-73.940763","region":"09","type":"B = Beginners meeting","interest":"undefined"},{"day":"Tuesday","start":18.3,"end":19.3,"name":"East Harlem  East Harlem","location":"Peter Jay Sharpe Building","address":"223 E 117TH ST New York NY 10035","lat":"40.7982106","long":"-73.9382769","region":"09","type":"B = Beginners meeting","interest":"Living Sober"},{"day":"Sunday","start":17,"end":18,"name":"Grupo Nueva Vida  Grupo Nueva Vida","location":"","address":"2126 2ND AVE New York NY 10029","lat":"40.7927121","long":"-73.94069","region":"09","type":"OD = Open Discussion meeting","interest":"undefined"},{"day":"Sunday","start":13,"end":14,"name":"Harlem 1 Pm Recovery  Harlem 1 Pm Recovery","location":"Veterans Residence","address":"22 E 119TH ST New York NY 10035","lat":"40.8021458","long":"-73.9442327","region":"09","type":"T = Tradition meeting","interest":"undefined"}]